Sr No, Blood Bank Name, State, District, City, Address,Pincode, Contact No, Mobile, Helpline, Fax, Email, Website, Nodal Officer , Contact Nodal Officer, Mobile Nodal Officer, Email Nodal Officer, Qualification Nodal Officer, Category, Blood Component Available, Apheresis, Service Time, License #, Date License Obtained, Date of Renewal, Latitude, Longitude, Contact.No.1, Contact.No.2, Contact.No.3, Contact.No.4, Contact.No.5, Contact.No.6, Contact.No.7
1,Bagalkot Blood Bank,Karnataka,BAGALKOT,Bagalkot,"Hanagal Shree Kumareshwar Hospital and Research Centre, Ilkal Road",587101,0835 220420,9448939708,,,,,Dr. Manika Alexander,835220420,9448939708,bagalkotbloodbankbagalkot@gmail.com,Medical officer,Private,NO,NO,24X7,KTK/28C-129/2001 ,17-05-2001,2017,16.186132,75.70653,0835 220420,,,,,,
2,B. V. V. Sanghas HSK Hospital Blood Bank,Karnataka,BAGALKOT,Bagalkot,"Navanagar, Bagalkot",587102,08352 235410 ,9448939768,,,,,Dr. V. S. Malipatil,8352235410,9448939768,,Medical Officer,Private,YES,YES,24X7,KTK/28C-172/2004,27-07-2004,2019,16.165075,75.675072,08352 235410 ,,,,,,
3,District Hospital Blood Bank Bagalkot,Karnataka,BAGALKOT,Bagalkot,Navanagar,587101,0835 4236030,9448037225,,,,,Dr. N.S . Bekinal,0835 4236030,9448037225,,Medical officer,Government,NO,NO,24X7,KTK/28C-202/ 2007,12-06-2007,11-06-2017,16.165011,75.660812,0835 4236030,,,,,,
4,M/s. Vijay Mahant Blood Bank,Karnataka,BAGALKOT,Ilkal,"Sri Basaveshwara Childrens Hospital & Research Centre,
Gorbal Naka",587125,08351 270838,9448293298,,,vijayamahantbloodbank@gmail.com ,,Dr. Mahalingappa. B. G.,8351270838,9448293298,vijayamahantbloodbank@gmail.com,Pathologist,Private,YES,NO,24X7,KTK/28C-295/15,12/23/2015,12/22/2020,15.9634037,76.1165421,08351 270838,,,,,,
5,Mounesh Hospital&#39;s The Jhamkandi Blood Bank,Karnataka,BAGALKOT,Jamkhandi,"Near P.B. High School, Uma Rameshwar Road",587101,08353 22357,9448405435,,,,,Dr. Abhay Suresh Watwe,08353 22357,9448405435,thejkdbloodbank@gmail.com,Medical officer,Private,NO,NO,24X7,KTK/28C-201/ 2007 ,12-06-2007,,#N/A,#N/A,08353 22357,,,,,,
6,Ramanagoudar Hospital Blood Bank,Karnataka,BAGALKOT,Mudhol," 2nd floor, CTS, No.4042/B17, Near Kathi Kalyan Mantap ",587313,08350 281999,9448987785,,,,,Dr. Usha C. Basaraddi,08350 4281999,9448987785,mahadevrhbb@gmail.com,Medical officer,Private,NO,NO,24X7,KTK/28C/258/2013,03-06-2013,02-06-2018,15.364709,75.123955,08350 281999,,,,,,
7,M/s. Sai Aadhar Hospital Blood Bank,Karnataka,BAGALKOT,Mudhol,"Sai Aadhar Hospital, Yadwad Road",587313,08350 282100,9880723163,,,saiaadhar2010@gmail.com,,Dr. Savitha Shetter,08350 282100,9880723163,saiaadhar2010@gmail.com,Pathologist,Private,NO,NO,24X7,KTK/28C-289/15,17-07-2015,16-07-2020,16.325218,75.289397,08350 282100,,,,,,
8,K.L.E.Society & Medical Research Centre Blood Bank,Karnataka,Belgaum,Belgaum,Nehru Nagar,590010,0832 2473777,9448273131,,,,,Dr. Raghavenra,0832 2473777,9448273131,medicaldirector@klehopital.org,Medical Officer,Private,YES,NO,24X7,KTK/28C-23/96,14-02-1997,30-11-2017,15.887919,74.519593,0832 2473777,,,,,,
9,Belgaum Blood Bank and Diagnostic Laboratory,Karnataka,Belgaum,Belgaum,"3137, Huns Talkies Road, (opposite to Central High School)",590001,0831 2425835,94481610492,,,,,Dr. Vijaykumar Telsang,0831 2425835,94481610492,,Medical officer,Private,NO,NO,24X7,KTK/28C-28/96,01.01.1996,2016,15.860356,74.512478,0831 2425835,,,,,,
10,District Hospital Blood Bank,Karnataka,Belgaum,Belgaum,Dr. B. R. Ambedkar Road,590001,0831 2425073,9448989739,,,,,Dr. Amit,0831 2425073,9886685302,belgaum.bims@gmail.com,Medical officer,Government,YES,NO,24X7,KTK/28C-44/97,22-03-1997,30-11-2017,15.86908,74.510438,0831 2425073,,,,,,
11,Shree Mahaveer Blood Bank,Karnataka,Belgaum,Belgaum," 4th Floor, Radio Complex, CTS No. 116/1A, Shivaji Road",590001,0831 2430759,9480275212,,,,,Dr. Vadindra B. Yelburgi,0831 2430759,9480275212,Shreemahaveerbb@gmail.com,Medical Officer,Private,NO,NO,24X7,KTK/28C-294/2013,21-06-2013,20-06-2018,15.854367,74.511233,0831 2430759,,,,,,
12,M/s. Sri Sai Blood Bank,Karnataka,Belgaum,Belgaum,"Shri Sai Hospital, No:40/2, Laxmi Nagar Main Road,
Vadagaon",590005,0831 2496444,9986399216,,,,,Dr. C. S. Hanchinamani,8312496444,9986399216,drdodamani@gmail.com,Pathologist,Private,NO,NO,24X7,KTK/28C-282/15,20-03-2015,19-03-2020,15.833587,74.526571,0831 2496444,,,,,,
13,Rotary Charitable Trust Blood Bank,Karnataka,Belgaum,Chikkodi,"New Extension Area, Nippani",591237,08338 221377,9448121366,,,,,Dr. Pankaj Deshmane,0831 2220702,9448121366,,Medical Officer,Charity,NO,NO,24X7,KTK/28C-195/ 2006,30-12-2011,Pending since 2012,16.160173,74.812128,08338 221377,,,,,,
14,Rotary Seva Sangh Blood Bank,Karnataka,Belgaum,Gokak," R. S. No. 211/B, Plot No. 14C, Yogikolla Road",591307,0831 225300,9448111151,,,,,Dr. B. R. Kappalguddi,0831 225300,9448111151,uajari@gmail.com,Medical officer,Charity,NO,NO,24X7,KTK/28C-204/ 2007,30-07-2007,30-06-2017,16.160405,74.81216,0831 225300,,,,,,
15,Medical College Hospital Blood Bank,Karnataka,BELLARY,Bellary,"Vijayanagara Institute of Medical Science (VIMS), Bellary",583104,08392 235356,9449463366,,,,,Dr. Nagarekha Kularani,08392 235356,9740637002,vimsbloodbank@gmail.com,Medical officer,Private,YES,YES,24X7,KTK/28C-40/97,18-03-1997,18-02-2017,15.154334,76.896594,08392 235356,,,,,,
16,District Hospital Blood Bank Bellary,Karnataka,BELLARY,Bellary,Bellary.,,,,,,,,,,,,,Government,NO,NO,24X7,KTK/28C-63/97,05-05-1997,Pending,15.1393932,76.9214428,,,,,,,
17,Swamy Vivekananda Charitable Blood Bank,Karnataka,BELLARY,Bellary,"D. No.130, Near TVS Show Room, Parvathinagar Main Road",583103,0839 266938,9880080389,,,,,Dr. T. Raja Gopala Reddy,0839 266938,9880080389,svcbb@rocketmail.com,Medical Officer,Charity,YES,YES,24X7,KTK/28C-199/ 2007,01-06-2007,2017,15.1524155,76.9247396,0839 266938,,,,,,
18,Smt. Vasantidevi Baldota Blood Bank,Karnataka,BELLARY,Hospet,"Baldota Colony, Dam Road, Hospet",583203,0839 231901 ,9945188052,,,,,Dr. S. D. Sulochana,0839 231901,9945188052,bloodbank@msplimited.com,Medical officer,Private,YES,NO,24X7,KTK/28C-132/2001,13-06-2001,30-11-2017,15.260432,76.3812983,0839 231901 ,,,,,,
19,Chiranjeevi Blood Bank,Karnataka,BELLARY,Hospet,"Near Vijayanagara Colony, 100 Bed Hospital Road, Amaravathi",583201,0839 262275  ,9972233066,,,,,Dr. Sumangala,0839 262275,9972233066,,Medical officer,Private,YES,NO,24X7,KTK/28C-242/2011,13-09-2011,13-08-2016,#N/A,#N/A,0839 262275  ,,,,,,
20,M/s. Sri Siddartha Medical College Hospital Blood Bank,Karnataka,BENGALURU RURAL,Bangalore,"Sri Siddhartha Medical College & Hospital, T.Begur, Nelamangala Tq",562123,,9901669103,,,,,Dr. Iqbal Ahmed Shariff,,9901669103,dr_ias@yahoo.com,Pathologist,Private,YES,NO,24X7,KTK/28C-285/15,23-05-2015,22-05-2020,13.160791,77.323405,,,,,,,
21,MVJ Medical College and Research Hospital Blood Bank,Karnataka,BENGALURU RURAL,Hosakote,"Dandupalya, Kolathur Post, NH-4",560164,080 27931473,9844021613,,,,,Dr. Vidya Bhat,080 27931473,9844021613,,Medical officer,Private,YES,NO,24X7,KTK/28C-185/2005,13-02-2006,Pending,13.077457,77.811502,080 27931473,,,,,,
22,BGS Global Hospitals Blood Bank,Karnataka,BENGALURU RURAL,Kengeri,"No. 67, Uttarahalli Road",560060,080 26255555,9535408623,,,,,Dr. Annapurna Ramesh,080 26255555,9535408623,drannapurana@bgsglobalhospitalsindia.com,Medical officer,Private,YES,NO,24X7,KTK/28C-211/ 2007,31-03-2008,2018,12.911276,77.486216,080 26255555,,,,,,
23,Harsha Hospital Blood Bank,Karnataka,BENGALURU RURAL,Nelamangala,"No. 193/4, Byraveshwaranagar, Sondekoppa Circle, N.H.4, Bengaluru.",562123,080 27723695 (Not in use),,,,,,,,,,,Private,NO,NO,24X7,KTK/28C-194/ 2006,06-02-2007,2017,13.097983,77.38581,080 27723695 (Not in use),,,,,,
24,Narayana Hrudayalaya Blood Bank,Karnataka,BENGALURU URBAN,Anekal Taluk,"University Medical Centre, (KMC) Hospital",560099,080 27835000 ,9901200440,,,,,Dr.Girish,8884416540,9972034266,girish.cj.dr@nhhospitals.org,MD Transfusion Medicine,Private,YES,YES,24X7,,,,12.80927,77.695173,080 27835000 ,,,,,,
25,Government Haji Sir Ismail Sait Gosha Hospital Blood Bank,Karnataka,BENGALURU URBAN,Bangalore,"Near KSPCB Limited, Tasker Town, Shivaji Nagar",560051,080 2286 6529,9481520707,,,,,Dr. Meenakshi Patil,080 2286 6529,9481520707,meenakshispatil@gmail.com,MBBS,Government,NO,NO,24X7,KTK/28C-283/15,29-05-2015,28-05-2020,12.987532,77.604913,080 2286 6529,,,,,,
26,Swamy Vivekananda Voluntary Blood Bank,Karnataka,BENGALURU URBAN,Bangalore,"No.20,3rd Floor, SGRR Complex, 1st Cross, Raja Ram Mohan Roy Road, S. R. Nagar",560027,080 22224044,9343773931,,,vivekanandabloodbank@gmail.com,,Sri. K. Vishal Yadav,080 22224044,9343773931,vivekanandabloodbank@gmail.com,Lab technician,Private,YES,NO,24X7,KTK/28C-275/14,22-09-2014,21-09-2019,12.9649846,77.589012,080 22224044,,,,,,
27,M/s. Aster CMI Hospital Blood Bank,Karnataka,BENGALURU URBAN,Bangalore,"43/2, Bellary Rd,NH-4,Sahakar Nagar, Hebbal",560092,080 43420213,9844844708,080 4342 0100,,info@asterbangalore.com,http://asterbangalore.com/,Dr. Sridhar Murthy,080 43420213,9844844708,,Pathologist,Private,YES,NO,24X7,KTK/28C-288/15,07-04-2015,07-03-2020,13.054677,77.592504,080 43420213,,,,,,
28,M/s. East Point Hospital Blood Bank Virgonagar,Karnataka,BENGALURU URBAN,Bangalore,"East Point college of Medical Sciences&Hospital, Janana Prabha Campus, Bidarahalli",560049,080 25136246,9916865999,,080 25073903,,http://www.eastpoint.ac.in/,Dr. Sunitha,080 25136246,8147732899,centralab@eastpoint.ac.in,,Private,YES,NO,24X7,KTK/28C-284/15,03-06-2015,02-06-2020,13.053662,77.717912,080 25136246,,,,,,
29,Unique Blood Bank & Diagnostic Centre,Karnataka,BENGALURU URBAN,Bangalore,"1st floor,S.L.N.Complex, City Market Square",560002,080 2600685,9448216553,,,uniquebb92@gmail.com,,Mr. Suresh Kumar,080 26700685,9448216553,uniquebb92@gmail.com,Lab technician,Private,NO,NO,24X7,KTK/28C-57/97,04-02-1997,12/31/2016,12.965837,77.576262,080 2600685,,,,,,
30,SHUSHRUTHA VOLUNTARY BLOOD BANK,Karnataka,BENGALURU URBAN,Bangalore,"The Blood Bank Medical officer
Sushrutha Voluntary Blood Bank,
No:875,Modi Hospital Road,  Near Pristine Hospital",560 086,080 23230777,8951853537,,,,,Dr.Rama Raja Gupta,,9880271244,svbb2016@gmail.com,MD pathology,Private,NO,2,24X7,KTK/28C-300/2015,22-04-2015,21-04-2020,12.9978842,77.5411603,080 23230777,,,,,,
31,Bengaluru Blood Bank and Diagnostic Laboratory,Karnataka,BENGALURU URBAN,Bengaluru,"Between 6th and 7th Cross, Opposite R.R.Gold Palace, Sampige Road,Malleshwaram",500003,080 23347714,9886747992,,,,,"Smt Gayathri C	",080 23347714,9886747992,chandrakant.bloodbank@yahoo.co.in,DMLT,Private,YES,NO,24x7,KTK/28C/1/94,26-08-1994,31-12-2016,12.998074,77.571614,080 23347714,,,,,,
32,Bengaluru Rotary TTK Medical Service Trust Blood Bank,Karnataka,BENGALURU URBAN,Bengaluru,"New Thippasandra Main Road, HAL III Stage",560075,080 25293486/ 9900153000/ 9900163000,9740594251,,,,http://www.bmstindia.org/,Dr. Ankith mathur,"08025287903	",97405942510,admin@bmstindia.org,Transfusion Medicine Specialist,Private,YES,YES,24x7,KTK/28C-7/95,1995,30-12-2017,12.99807,77.580434,080 25293486/ 9900153000/ 9900163000,,,,,,
33,KIMS Hospital Blood Bank,Karnataka,BENGALURU URBAN,Bengaluru,"K. R. Road, Visveswarapuram,Near Makkala Koota Bus Stop",560004,080 26613225,9448559664,,9180 26712798 ,,http://www.kimsbangalore.edu.in/hospital.html,Dr. Venkatesh Prasad,8798765432,9448559664,bngkims@kar.nic.in.,Medical Officer,Private,YES,NO,24x7,KTK/28C-8/95,11-09-1995,30-12-2017,12.956353,77.574114,080 26613225,,,,,,
34,Bangalore Baptist Hospital Blood Bank,Karnataka,BENGALURU URBAN,Bengaluru,"Bellary Road, Hebbal",560024,080 22024700,9480424340,,,,http://www.bbh.org.in/,Dr. Neena John,"08022024324	",9480424340,pathology@bbh.org.in,Pathologist,Private,YES,NO,24x7,KTK/28C-14/96,02-09-1996,30-12-2017,13.035289,77.589935,080 22024700,,,,,,
35,Sanjaya Gandhi Accident Hospital and Research Institute Blood Bank,Karnataka,BENGALURU URBAN,Bengaluru,"Jayanagar East, Byrasandra",560011,080 26564516,9036586966,,,,http://www.sgito.org,Dr. Shanthi Jyothi,080 26564516,9916242438,bngu.sanjayagandhihospital.bb@gmail.com,Medical Officer,Government,NO,NO,24x7,KTK/28C-16/96,08-01-1997,30-12-2017,12.935769,77.593859,080 26564516,,,,,,
36,Victoria Hospital Blood Bank,Karnataka,BENGALURU URBAN,Bengaluru,"Fort Road, Bengaluru",560002,080 26700001,9591497657,,080 26703267.,,http:/victoriahospitalbangalore.org,Dr. R. Sreelatha,080 26701150,95914976570,panch2001@yahoo.com,Medical Officer,Government,YES,NO,24x7,KTK/28C-18/96,28-10-1996,30-12-2016,12.963399,77.573818,080 26700001,,,,,,
37,M. S. Ramaiah Medical Teaching Hospital Blood Bank,Karnataka,BENGALURU URBAN,Bengaluru,Gokul Extension,560054,080 22183100,9845120603,,,,,Dr. Nanda Kishore V,080 22183100,9845120603,,Medical Officer,Private,YES,YES,24x7,KTK/28C-26/96,04-12-1996,31-11-2016,13.030487,77.566648,080 22183100,,,,,,
38,Saint Martha&#39;s Hospital Blood Bank,Karnataka,BENGALURU URBAN,Bengaluru,Nrupatunga Road,560001,080 40128243,9686452704,,,,,Dr. Anitha Ramakrishnan,080 4012843,9686452704,stmarthaslab@gmail.com,Medical Officer,Private,YES,NO,24x7,KTK/28C-27/96,01-01-1996,30-11-2016,12.970679,77.586085,080 40128243,,,,,,
39,Kidwai Memorial Institute of Oncology Blood Bank,Karnataka,BENGALURU URBAN,Bengaluru,Dr. M.H.Marigowda  Road,560029,080 26094082,99869900040,,091080 6560723,,http://www.kmio.org,Dr. Deepa S.Anand,"08026094082	","09986990040	",bngu.kidwai.bb.@gmail.com,Medical Officer,Government,YES,NO,24x7,KTK/28C-32/97,01-01-1997,Pending,12.93759,77.598537,080 26094082,,,,,,
40,Transfusion Medicine Centre Blood Bank,Karnataka,BENGALURU URBAN,Bengaluru,NIMHANS Hosur Road,560029,"080 26995435, 080 26995436, 080 26995437",080 26995435,,,,http://www.nimhans.ac.in,Mr. Shivanna,080 26995435,080 26995435,Shivannan71@gmail.com,DMLT,Government,YES,YES,24x7,KTK/28C-33/97,12-02-1997,30-12-2017,12.94039,77.59883,080 26995435, 080 26995436, 080 26995437,,,,
41,St. John&#39;s Medical College Blood Bank,Karnataka,BENGALURU URBAN,Bengaluru,"Sarjapur Road, Bengaluru",,080 22065045,9591990365,,,,http://www.stjohns.in,Dr. Sitalaksmi,"080 22065181	",9591990365,slvbs@yahoo.co.in,Pathologist,Private,YES,YES,24x7,KTK/28C-35/97,01-01-1996,31.12.2011 (Pending),12.929482,77.620182,080 22065045,,,,,,
42,Mallya Hospital Blood Bank,Karnataka,BENGALURU URBAN,Bengaluru,"No.2, Vittal Mallya Road",560001,"080 22277979	",9845043017,,9180 22121282,,http://www.mallyahospital.net,Dr SUDHINDRA SG,"08022277979	",9845043017,ss_964@rediffmail.com,Medical Officer,Private,YES,YES,24x7,KTK/28C-36/97,03-03-1997,30-12-2017,12.968063,77.595068,"080 22277979	",,,,,,
43,Hindustan Aeronautics Limited - HAL Hospital Blood Bank ,Karnataka,BENGALURU URBAN,Bengaluru,"Suranjandas Road, Near HAL Airport, Vimanapura",560017,080 22314632   ,9845347978,,,,http://www.hal-india.com,Dr. Sindha Thomas,080 25434581,9845347978,bngu.hal.bb@gmail.com,Medical Officer,Government,NO,NO,24x7,KTK/28C-45/97,22-03-1997,30-12-2017,12.962447,77.665284,080 22314632   ,,,,,,
44,Saint Philomena Blood Bank,Karnataka,BENGALURU URBAN,Bengaluru,"No.1, Nilsandra Road",560047,080 40164348 ,9916065305,,,,,Sr. Daisy,080 40164348 ,9916065305,philomenabloodbank@gmail.com,Medical Officer,Private,NO,NO,24x7,KTK/28C-47/97,26-03-1997,30-12-2017,12.965428,77.610476,080 40164348 ,,,,,,
45,K. C. General Hospital Blood Bank,Karnataka,BENGALURU URBAN,Bengaluru,Malleshwaram,560003,080 23343791,8722604100,,,,,Dr. Shantha Hosamani,080 23343791,8722604100,bloodbankkcg@gmail.com,Pathologist,Government,NO,NO,,KTK/28C-48/97,26-03-1997,30-12-2017,12.996389,77.56931,080 23343791,,,,,,
46,Command Hospital Blood Bank Air Force,Karnataka,BENGALURU URBAN,Bengaluru,"Old Airport Road, Near Cambridge Layout, Domlur Village, Post Agram",560007,080 25234632,9663865587,,,,http://www.afmc.nic.in/,Dr. W. V. Tiwari,080 25234632,9663865587,commandobloodbank.bngu@gmail.com,Medical Officer,Government,YES,NO,24x7,KTK/28C-53/97,31-03-1997,30-12-2017,12.963321,77.62882,080 25234632,,,,,,
47,E.S.I.Hospital Blood Bank,Karnataka,BENGALURU URBAN,Bengaluru,Rajajinagar,560010,080 23013808,9945343990,,,,,Dr. Brilsee Simeon,080 23013808,9945343990,dr.brilsee.simeon@esic.in,Pathologist,Government,NO,NO,24X7,KTK/28C-60/97,01-01-1996,30-12-2017,12.990775,77.553498,080 23013808,,,,,,
48,Rashtrotthana Blood Bank,Karnataka,BENGALURU URBAN,Bengaluru,"93/2 Keshava Shilpa 1st Mn Road, Kempegowda Nagar ",560019,080 26610916,9480436702,,,,,Dr. Sumithra P,080 26610916,9480436702,rbloodbank@gmail.com,Pathologist,Private,YES,YES,24X7,KTK/28C-61/97,15.02.1997,30.12.2016,12.954814,77.565362,080 26610916,,,,,,
49,Dr. B. R.Ambedkar Medical College Hospital Blood Bank,Karnataka,BENGALURU URBAN,Bengaluru,"K.G.Halli, Bengaluru",560045,080 25463442,9980155789,,,,http://www.bramc.org,Dr. Nirmala B.G,080 25463442,9980155789,drbgn@yahoo.co.in,Medical Officer,Private,NO,NO,24x7,KTK/28C-111/2000,17-05-2000,30-12-2016,13.025275,77.614217,080 25463442,,,,,,
50,Hosmat Hospital Unit of Phisicare Services Private Limited Blood Bank,Karnataka,BENGALURU URBAN,Bengaluru,"No.45, Magrath Road, Off. Richmond Road",560023,080 25593796,8050780930,,9180 25593798,,http://www.hosmatnet.com,Mr. Johnson,080 25543797.,8050780930,mail@hosmatnet.com,DMLT,Private,NO,NO,24x7,KTK/28C-113/2000,03-06-2000,30-11-2016,12.969035,77.61346,080 25593796,,,,,,
51,Grace Blood Bank and Laboratory,Karnataka,BENGALURU URBAN,Bengaluru,"2, 10th Cross, Ganganagar, Bengaluru",560032,080 23431233 ,9740330720,,,,,Mr. B. Shri Krishnappa,080 23431233 ,9740330720,bngu.grace.bb@gmail.com,DMLT,Private,NO,NO,24x7,KTK/28C-123/2000,12-09-2000,30-11-2016,13.026155,77.588859,080 23431233 ,,,,,,
52,Sri Sathya Sai Institute of Higher Medical Sciences Blood Bank,Karnataka,BENGALURU URBAN,Bengaluru,"EPIP Area, Whitefield",560066,"080 28411500, 080 28004600 ",9741597101,,9180 28411503,,https://wfd.sssihms.org.in/,Dr. Neha,080 28411500 ,97415971010,laboratoryblr@sssihms.org.in,Medical Officer,Private,YES,NO,24x7,KTK/28C-125/2001,01-01-2001,30-12-2017,12.981135,77.729224,080 28411500, 080 28004600 ,,,,,
53,Navarang Blood Bank,Karnataka,BENGALURU URBAN,Bengaluru,"No.2953, Ist Floor, Near Navarang Circle, M.K.K.Road, 
Rajaji Nagar, ",560010,080 23521233 ,9844111233,,,,,Dr. Shamsundar,080 23521233 ,9844111233,bngu.navaranga.bb@gmail.com,Medical Officer,Private,NO,NO,24x7,KTK/28C-131/2001,11-06-2001,31-11-2017,12.9982,77.551623,080 23521233 ,,,,,,
54,Bangalore Lions Service Trust - Lions Blood Bank,Karnataka,BENGALURU URBAN,Bengaluru,"Bhagwan Mahaveer Jain Hospital, Millers Road, Vasantha Nagar",560052,080 22266807,9845315670,,,,,Sri M B Deepak Suman,080 22266807,9845315670,lionsbloodbank@airtelmail.in,DMLT,Charity,YES,NO,24x7,KTK/28C-137/2001,18-09-2001,PENDING,12.989645,77.592754,080 22266807,,,,,,
55,Sri Jayadeva Institute of Cardiology Blood Bank,Karnataka,BENGALURU URBAN,Bengaluru,"Gurappanapaly Post, Banneraghatta Road",560069,080 22977213,9886812718,,,,,Dr. Uma Devi K,080 22977213,9886812718,nanduma64@gmail.com,Medical Officer,Government,YES,NO,24x7,KTK/28C-143/2002,18-01-2001,Pending,12.917957,77.599329,080 22977213,,,,,,
56,Vydehi Institute of Medical Science Hospital Blood Bank,Karnataka,BENGALURU URBAN,Bengaluru,"EPIP AREA, 06 WHITE FIELD",560066,080 28410874 ,9916749060,,,,,Dr. Syed Kabber Ahmed,080 28410874,9916749060,soslekabeer@hotmail.com,Medical officer,Private,YES,YES,24x7,KTK/28C-145/2001,28-02-2002,26-02-2017,12.975378,77.72927,080 28410874 ,,,,,,
57,Akshay Voluntary Blood Bank,Karnataka,BENGALURU URBAN,Bengaluru,"No. 968, 2nd Floor, 41st Cross, 3rd Block. Opposite E.S.I. Hospital, Rajajinagar",560070,080 23147303,9448084990,,,,,"Dr, Keshava Murthy G. M.",080 23147303,9448084990,akshaybb02@gmail.com,Medical Officer,Charity,YES,NO,24x7,KTK/28C-146/2002,14-12-2002,13-12-2016,12.989853,77.552805,080 23147303,,,,,,
58,Bowring and Lady Curzon Hospitals Blood Bank,Karnataka,BENGALURU URBAN,Bengaluru,"Shivaji Nagar, Bengaluru",560051,080 25591362,9449621169,,,,http://www.bowringhospital.org,Dr. Zaheer,080 25327714,9449621169,blchbloodbank42@gmail.com,Medical Officer,Government,NO,NO,24x7,KTK/28C-157/2003,01-04-2003,31-03-2018,12.982165,77.604276,080 25591362,,,,,,
59,Kempegowda Medical Service Trust - Millennium Blood Bank,Karnataka,BENGALURU URBAN,Bengaluru,"No.1082/9, Sreenivasa Prasanna Complex, Triveni Road, Yeshwanthpur, Bengaluru",560022,080 23571001,9972111552,,,,,"Dr. Narasingappa	",080 23571001,9972111552,kempegowdamst@gmail.com,,Private,NO,NO,24x7,KTK/28C-159/2003,08-08-2003,17-04-2016,13.019584,77.557981,080 23571001,,,,,,
60,S. K. Voluntary Blood Bank,Karnataka,BENGALURU URBAN,Bengaluru,"14/1,I Floor, MESA Complex, Old Tolgate Bus Stop, 
Magadi Main Road",560023,080 23103524 ,9341273805,,,,,Mr. Sri Ravi N M ,080 23103524 ,9341273805,bngu.skvoluntarybb@gmail.com,DMLT,Private,YES,NO,24x7,KTK/28C-161/2003,05-07-2003,03-07-2018,12.974445,77.549288,080 23103524 ,,,,,,
61,Indira Gandhi Child Institute of Health Blood Bank,Karnataka,BENGALURU URBAN,Bengaluru,"South Hospital Complex, Dharamaram College Post",560029,080 22443143,9448032867,,080 26541799,,http://www.igch.org/,Dr. Pradeep R,080 22443143,9448032867,igibloodbank@gmail.com,Medical Officer,Government,YES,NO,24x7,KTK/28C-169/2004,23-03-2004,22-03- 2014 (Pending at DCGI),12.937319,77.592016,080 22443143,,,,,,
62,Rajarajeshwari Medical College Hospital Blood Bank,Karnataka,BENGALURU URBAN,Bengaluru,"5th Cross, Mysore Road, New Guddadahalli",560074,080 65666768 ,9845128072,,,,,Dr. Latha V,080 65666768 ,9845128072,bloodbank@rrmch.org,Medical Officer,Private,YES,YES,24x7,KTK/28C-173/2004,21-10-2004,09-02-2019,12.896508,77.46166,080 65666768 ,,,,,,
63,Sanjeevini Trust Jayanagar Voluntary Blood Bank,Karnataka,BENGALURU URBAN,Bengaluru,"1897/A, Cellar Floor, Gulora, 26th Main Road, Sount End Cross Road, 9th Block, Jayanagar",560069,080 26494748 ,9342171911,,,,,Dr. Venugopal,080 26494748 ,9342171911,jayanagarbloodbank24hrs@gmail.com,Medical Officer,Charity,YES,NO,24x7,KTK/28C-177/2005,24-02-2005,23-02-2015,12.9157415,77.5909561,080 26494748 ,,,,,,
64,Sri Vinayaka Charitable Trust  Jeeva Voluntary Blood Bank,Karnataka,BENGALURU URBAN,Bengaluru,"No. 23 and 84, Sharoff Basappa Commercial Complex, 2nd Main, Ist Cross, New Tharugpet",560002,080 25990583,9845801539,,,,,Dr. Ravi Shankar,080 25990583,9845801539,jvbb02@gmail.com,Medical Officer,Charity,YES,NO,24x7,KTK/28C-182/2005,25-06-2005,23-03-2015,12.961633,77.571067,080 25990583,,,,,,
65,Indian Red Cross Society - Karnataka Red Cross Blood Bank,Karnataka,BENGALURU URBAN,Bengaluru,"Red Cross Bhavan, 326, Ist Floor, Race Course Road, Bengaluru",560001,080 22268435,9902859859,,,,http://www.redcrosskarnataka.org,Dr. Arpitha Desai,080 22268435,9902859859,ircskar@vsnl.net,Medical Officer,Charity,YES,NO,24x7,KTK/28C-187/2006,09-08-2006,07-08-2016,12.984218,77.578831,080 22268435,,,,,,
66,Apollo Hospitals (Imperial Cancer Hospital and Research Centre) Blood Bank,Karnataka,BENGALURU URBAN,Bengaluru,"Apollo Hospitals a unit of Imperial Cancer Hospital and Research Centre Limited, 154/11, Opp.I.I.M Bannerghatta Road",560076,080 26304050 / 51,9945683872,,080 41463151,,http://www.apollohospitalsbangalore.com,Dr. Geetha Gowdar,080 26304050,9845926164,jagstarl@gmail.com,Medical Officer,Private,YES,NO,24x7,KTK/28C-190/2006,14-12-2006,12-12-2016,12.89643,77.598015,080 26304050 / 51,,,,,,
67,Vijayanagar Hospital Blood Bank,Karnataka,BENGALURU URBAN,Bengaluru,"No. 27, 17th Cross, M.C. Layout, Vijayanagar",560040,080 23358800,9901155344,,,vijayanagarabloodbank@gmail.com,,Dr. Sushil Inamdar,080 23358800,9901155344,vijayanagarabloodbank@gmail.com,Medical Officer,Private,NO,NO,24x7,KTK/28C-193/ 2007,06-02-2007,06-01-2017,12.969227,77.536519,080 23358800,,,,,,
68,Bangalore Institute of Oncology Blood Bank,Karnataka,BENGALURU URBAN,Bengaluru,"No. 8, P. Kalinga Rao Road, Sampangiram Nagar",560027,080 40206121,9008255888,,,,,Dr. Deepthi,080 40206121,9844953958,drdeepti.hallur@hcgoncology.com,Medical Officer,Private,NO,NO,24x7,kTK/28C-198/ 2007,02-05-2007,01-05-2017,12.964273,77.589629,080 40206121,,,,,,
69,Ocean Blood Bank,Karnataka,BENGALURU URBAN,Bengaluru,"No. 133-134, K. P. Broadway Road, Shivajinagar",560051,080 25552199,9845854991,,,,,Dr. Syed Azeezuddin,080 25552199,9845854991,oceansuh36@gmail.com,Medical officer,Private,NO,NO,24x7,KTK/28C-200/ 2007,01-06-2007,11-06-2017,12.982018,77.604484,080 25552199,,,,,,
70,Rotary K. R. Hospital Blood Bank,Karnataka,BENGALURU URBAN,Bengaluru," No. 75, Hanumanthanagar, 50 Feet Road, Bengaluru ",560050,080 28437393,9845574600,,,,,Dr. Dhamodharan,080 28437393,9845574600,bngu.rotarykrhospital.bb@gmail.com,Medical Officer,Private,NO,NO,24x7,KTK/28C-205/2007,20-08-2007,18-08-2017,12.941937,77.553588,080 28437393,,,,,,
71,Veerayoga Institute of Medical Sciences Speciality Hospitals Blood Bank,Karnataka,BENGALURU URBAN,Bengaluru,"VIMS, No. 88, Marathhalli, Outer Ring Road",560037,080 4269800,9845453875,,,,,Dr. ,080 25720670,,vims@gmail.com,Medical Officer,Private,YES,NO,24x7,KTK/28C-209/ 2007,16-11-2007,14-11-2017,12.948331,77.699554,080 4269800,,,,,,
72,Columbia Asia Referral Hospital Blood Bank,Karnataka,BENGALURU URBAN,Bengaluru,"26/4, Brigade Gateway, Beside Metro Cash and Carry West West, Malleshwaram,",560055,080 39898968,9972461925,"080 39898969, 080 61656262",080 30925454,,http://www.india.columbiaasia.com/,Dr. Jayashree D Kulkarni,080 39898968,9449040542,jayashree.kulkarni@columbiaasia.com,Medical Officer,Private,YES,YES,24x7,KTK/28C-225/2009,03-11-2009,01-11-2019,13.014167,77.556035,080 39898968,,,,,,
73,Sagar Hospital Blood Bank,Karnataka,BENGALURU URBAN,Bengaluru,"Sy. No.53, Shavige Malleshwara Hills, Kumar Swamy Layout, Banashankari",560078,080 42999177  ,9591991888,,,,,Mr. H.S.Kumara,080 42999177  ,9591991888,bloodbank.bsk@sagarhospitals.in,DMLT,Private,YES,NO,N/A,KTK/28C/227/ 2010,10-08-2010,09-08-2015,12.907709,77.565114,080 42999177  ,,,,,,
74,Fortis Hospital Private Limited Blood Bank,Karnataka,BENGALURU URBAN,Bengaluru,Bannerghatta Road,560076,080 66214055 ,9341960717,,,,,Dr. Malathi Vannan,080 66214055,9341960717,care.bng@fortishospital.com,Medical Officer,Private,YES,YES,24x7,KTK/28C/229/2010,18-12-2009,17-11-2019,12.89453,77.598902,080 66214055 ,,,,,,
75,Fortis Hospital Private Limited Blood Bank,Karnataka,BENGALURU URBAN,Bengaluru,"14, Sheriffs Centre,Cunningham Road",560052,"080 41994515, 080 22261037",9845438200,,,,http://www.fortishealthcare.com/,Dr. Balraj Ramaswamy,8041994515,9845438200,balaraj.r@fortishealthcare.com,Medical Officer,Private,NO,NO,24x7,KTK/28C-232/2011,25-01-2011,24-01-2016,12.988216,77.594232,080 41994515, 080 22261037,,,,,
76,Sagar Hospital Blood Bank,Karnataka,BENGALURU URBAN,Bengaluru," 44/54, 30th Cross, Tilak Nagar, Jayangar Extension",560041,080 26536712 ,9448004502,,,,,Dr. Vijay Vishnu Prasad,080 26536712 ,"09591991883	",rajaninikanth@sagarhospital.in,Medical officer,Private,YES,YES,,KTK/28C-236/2011,01-04-2009,Pending,12.928003,77.599598,080 26536712 ,,,,,,
77,Manipal Hospital Transfusion Services Blood Bank,Karnataka,BENGALURU URBAN,Bengaluru,"No.98, Rustombagh, HAL Airport Road",560017,080 25024357,9845768593,1800 3001 4000,080 2526 6757,bloodbank@manipalhospitals.com,https://www.manipalhospitals.com,Dr. C. Shivaram,080 25024357,9845768593,shivaram@manipalhospitals.com,Medical Officer,Private,YES,NO,24x7,KTK/28C/237/2011,01-09-2010,Pending,12.958758,77.6491,080 25024357,,,,,,
78,Yashomathi Medicare and Research Centre Private Limited Blood Bank,Karnataka,BENGALURU URBAN,Bengaluru,"2371/3, HAL Airport, Varthur Main Road, Munne Kolala, Marathahalli Post",560037,080 43221019,9845664320,,,,,Dr. Uma Bai,080 43221019,9845664320,care@yashomatihospitals.com,Medical Officer,Private,YES,NO,24x7,KTK/28C-239/ 2011,19-07-2011,18-07-2016,12.955719,77.711256,080 43221019,,,,,,
79,Life Care Voluntary Blood Bank,Karnataka,BENGALURU URBAN,Bengaluru," No.126, 7th Block, Jayanagar, Opposite to Jayanagar Police Station",560011,080 22446923,8123533773,,,,,Mr. Ananda Kumar,080 22446923,8123533773,lifecarevoluntarybloodbank@gmail.com,DMLT,Charity,YES,NO,24X7,KTK/28C-136/2001,11-09-2001,09-09-2016,12.92837,77.581654,080 22446923,,,,,,
80,The Oxford Medical College Hospital Blood Bank and Research Centre,Karnataka,BENGALURU URBAN,Bengaluru," Yadavanahalli, Attibele (Hobli), Anekal Taluk",562107,8030847115,9980328064,080-30847101/102,,bloodbanktomch@gmail.com,http://theoxfordmedical.org/,Dr. Seema H. S,8030847115,9980328064,drseemspath28@gmail.com,Pathologist,Private,NO,NO,24X7,KTK/28C/259/2013 ,10-06-2013,09-06-2018,12.787186,77.756942,8030847115,,,,,,
81,Sakra World Hospital Blood Bank,Karnataka,BENGALURU URBAN,Bengaluru,"Sakra world Hospital (A Unit of Takshasila Hospitals Operating Private Limited), S.No. 52/2 and 52/3, Devarabeesanahalli, Varthur Hobli, Bellandur Post",560103,080 49694916 ,7259003589,,,,http://www.sakraworldhospital.com,Dr. Shabnam Roohi,080 49694916 ,7259003589,rani.premkumar@sakraworldhospital.com,Medical Officer,Private,YES,YES,24x7,KTK/28C/263/2013 ,24-09-2013,23-09-2018,12.932125,77.685263,080 49694916 ,,,,,,
82,Dr.Rajkumar (Appaji) Blood Bank,Karnataka,BENGALURU URBAN,Bengaluru," No.18, Krishi Bhavan, 2nd Floor, Hudson Circle",560001,080 22108108,9141334726,,,,,Dr. Chandrakala,080 22108108,9141334726,drrajkumarappajibloodbank@gmail.com,Medical Officer,Charity,NO,NO,24x7,KTK/28C-197/ 2007,02-05-2007,01-05-2017,12.967558,77.589363,080 22108108,,,,,,
83,Sri Shankara Cancer Hospital and Research Centre Blood Bank,Karnataka,BENGALURU URBAN,Bengaluru,"Shankara Math premises, 1st cross, shankarapuram, Basavanagudi",560004,080 26981101,9535408623,,,,http://shankaracancerfoundation.org/,Dr. Nandini Inamdar,080 26610151 ,,nandiniinamdar@yahoo.co.in,Pathologist,Private,YES,YES,24x7,KTK/28C-267/ 2013 ,18-12-2013,17-12-2018,12.954575,77.571128,080 26981101,,,,,,
84,Mediscope Blood Bank,Karnataka,BENGALURU URBAN,Bengaluru,"Mediscope Hospital, No.11, Pillanna Garden, 3rd stage",560045,080 25466554  ,9945666554,,,,,,080 25466554  ,9945666554,,,Private,,,24x7,,,,12.999478,77.616872,080 25466554  ,,,,,,
85,Sapthagiri Hospital Blood Bank,Karnataka,BENGALURU URBAN,Bengaluru,"No.15, Chikkasandra, Hesaraghatta Main Road",560090,080 22791638,9986500570,,,,,Dr. Lekha M B,080 22791638,9986500570,sapthagiribloodbank@gmail.com,Medical Officer,Private,YES,NO,24x7,KTK/28C/232/ 2011,25-01-2011,24-01-2016,13.070573,77.50228,080 22791638,,,,,,
86,The District Surgeon District Hospital Blood Bank,Karnataka,BIDAR,Bidar,,585401,08482 220744,9448584999,,,,,Dr. Veerendra Patil,08482 220744,9448584999,dsbidar@gmail.com,Medical Officer,Government,NO,NO,24x7,KTK/28C-38/97,13-03-1997,30-12-2017,17.918098,77.515003,08482 220744,,,,,,
87,District Hospital Blood Bank Bijapur,Karnataka,Bijapur,Bijapur,Athani Road,586102,08352 270108,8867225340,,,,,Dr. Channamma Katti,08352 270108,8867225340,bjrdistricthospitalbb@gmail.com,Pathologist,Government,NO,NO,24x7,KTK/28C-39/97,13-03-1997,30-12-2017,16.828098,75.691713,08352 270108,,,,,,
88,B.L.D.E. Association&#39;s Medical College & Reserch Centre Blood Bank,Karnataka,Bijapur,Bijapur,"Mahal Bagayat,Ashram Road",586103,0835 2262770,9880336328,,08352 263019.,,http://www.bldeuniversity.ac.in/,Dr. Prakash M Patil,0835 2262770,9880336328,bjr.bldemedicalcollege.bb@gmail.com,Medical Officer,Private,NO,NO,24x7,KTK/28C-56/97,01-01-1997,Pending,16.845101,75.710641,0835 2262770,,,,,,
89,Lions Blood Bank,Karnataka,Bijapur,Bijapur,"Bandikaman Road, Ward No.6, CTS No.168, Basement Ground and First Floor",586101,08352 22200050  ,9845894005,,,,,Dr. Premanand M Ambali,08352 22200050  ,9845894005,lionsclubbijapur@gmail.com,Medical Officer,Charity,NO,NO,24x7,KTK/28C-72/97,05-05-1997,Pending,16.827207,75.725839,08352 22200050  ,,,,,,
90,Dr. B. N. M. Rural Ayurvedic Medical College and Hospital Blood Bank,Karnataka,Bijapur,Bijapur,"Smt. Sushiladevi Nagur Colony, College Road",586101,0835 2655760,9538912222,,,,http://drbnmetrust.org/,Dr. Pradeep Kumar Vishwanath Hibare,0835 2655760,9538912222,bjr.drbnmayurvedicmch@gmail.com,Pathologist,Government,NO,NO,24x7,KTK/28C-126/2001,13-02-2001,30-12-2017,16.8301759,75.7078424,0835 2655760,,,,,,
91,Al-Ameen Medical College Hospital Blood Bank,Karnataka,Bijapur,Bijapur,"Athani Road, Bihapurkar",586101,08352 270113,9036358995,,08352 270251,,http://www.alameenmedical.org/,Dr. Saeed M Yendigeri,08352 270113,9036358995,patilbsus@yahoo.com,Medical Officer,Private,NO,NO,24x7,KTK/28C-165/2003,17-12-2003,Pending,16.825058,75.669209,08352 270113,,,,,,
92,GMETS Dr. Goudars Blood Bank,Karnataka,Bijapur,Bijapur,"852, A1 and A2 Ward IX, 1st Floor, Dr. Karigoudar&#39;s Complex Godbolemala",586101,08352 253604,9880883604,,,,,Dr. B. H. Kulkarni,08352 253604,9880883604,drkarigoudarlab@gmail.com,Medical Officer,Charity,NO,NO,24x7,KTK/28C-167/2004,24-01-2004,22-01-2019,16.828072,75.709979,08352 253604,,,,,,
93,District Hospital Blood Bank Chamarajanagar,Karnataka,CHAMARAJANAGAR,Chamarajanagar,District Hospital,577101,08226 222067,9449843165,,,,,Dr. Sujatha,08226 222067,9449843165,drhrsujatha@gmail.com,Medical Officer,Government,NO,NO,24x7,KTK/28C-261/2013 ,02-07-2013,01-07-2018,11.926773,76.941473,08226 222067,,,,,,
94,Holy Cross Hospital Blood Bank,Karnataka,CHAMARAJANAGAR,Kollegal,"Kamagere , Kolegala Taluk, Chamaraja Nagar",571443,08226 263116  ,9535813053,,08224 263348,,http://www.holrcrosskamagere.org,Dr. Shivu P,08226 263116 ,9535813053,shivap183@gmail.com,MBBS,Private,NO,NO,24x7,KTK/28C/224/2009,03-12-2009,02-12-2019,12.12938,77.233586,08226 263116  ,,,,,,
95,Indian Red Cross Society Blood Bank Chikkaballapur,Karnataka,Chikkaballapur,Chikkaballapur,"District Family Welfare Office, 2nd Floor, B. B. Road",561207,08156 272118,9844791189,,,,http://redcrosskarnataka.org/,Dr. Vikram R,08156 272118,9844791189,,Medical Officer,Charity,YES,NO,24x7,KTK/28C/246/2011,15-03-2012,14-03-2017,13.438043,77.72929,08156 272118,,,,,,
96,Mallegowda District Hospital Blood Bank,Karnataka,CHIKKAMAGALURU,Chikkamagaluru,Chikkamagaluru,577101,08262 238083,9449651152,,,,,Dr. K. R. Shivadatta,08262 238083,9449651152,,Medical Officer,Government,NO,NO,24x7,KTK/28C-64/97,05-05-1997,30-12-2017,13.218016,75.251826,08262 238083,,,,,,
97,Holy Cross Hospital Blood Bank,Karnataka,CHIKKAMAGALURU,Chikkamagaluru,"Housing Board Colony, K. M. Road, Jyothi Nagar",577101,08262 220077 ,9844964452,,08262 220017,,http://holycrosscip.org/,Dr Khalid Ahmed Khan,08262 220077 ,9844964452,directorholycrossckm@gmail.com,Medical Officer,Private,NO,NO,24x7,KTK/28C-114/2000,03-06-2000,30-12-2016,13.338634,75.80355,08262 220077 ,,,,,,
98,Sharada Dhanvantari Charitable Hospital Blood Bank,Karnataka,CHIKKAMAGALURU,Sringeri,"S. D. C. Hospital, P.B. No. 13, Vidyaranyapura Village,",577139,0826 220175,9448820970,,08265 251498 ,,http://www.sharadadhanvanthari.com/,Dr. N. Balakrishna Bhat,0826 220175,9448820970,ckm.sharadadhanvanthri.bb@gmail.com,MBBS,Charity,NO,NO,24x7,KTK/28C-99/99,02-06-1999,30-12-2017,13.428948,75.254286,0826 220175,,,,,,
99,District Hospital Blood Bank Chitradurga,Karnataka,CHITRADURGA,Chitradurga,B. D. Road Chitradurga,577501,08194 234710,8884491257,,,,,Dr. Roopa J. H,08194 234710,8884491257,,Medical Officer,Government,NO,NO,24x7,KTK/28C-96/98,01-01-1999,30-12-2017,14.220818,76.4065,08194 234710,,,,,,
100,SJM Blood Bank Basaveshwara Medical College Hospital and Research Centre,Karnataka,CHITRADURGA,Chitradurga,"NH-4, By Pass, Near KHB Colony",577502,08194 222054 ,9449681767,,,,,Dr. Ashoka Reddy B,08194 222054,9449681767,sjmbloodbank@gmail.com,Medical Officer,Private,NO,NO,24x7,KTK/28C-180/2005,01-06-2005,Pending,14.239807,76.388943,08194 222054 ,,,,,,
101,Vasavi Blood Bank,Karnataka,CHITRADURGA,Chitradurga,"Khata No. 4895/4720, Assessment No. 11479/13, 
B. L. Gowda Layout, Thurunur Road",577501,08194 222666,9886973068,,,,,Dr. T. K. Srinivas setty,08194 222666,98869730680,vasavibloodbankcta@gmail.com,Medical Officer,Private,NO,NO,24x7,KTK/28C-203/ 2007,24-07-2007,22-07-2017,14.229572,76.409483,08194 222666,,,,,,
102,Jyothi Hospital Blood Bank,Karnataka,DAKSHINA KANNADA,Belthangady,"Jyothi Hospital, Laila-574 214, Belthangady",574214,0825 6233939,9620570546,,,,,Dr. Annamma Joseph,0825 6233939,9620570546,,Medical Officer,Private,NO,NO,24x7,KTK/28C-207/ 2007,05-09-2007,03-09-2017,12.991208,75.288255,0825 6233939,,,,,,
103,M/s. Indian Red Cross Society Blood Bank,Karnataka,DAKSHINA KANNADA,Kundapur,"1st floor, Govt Hospital Building, Muncipal Road",576201,08254 233111,8105017014,,,ircsbloodbankkdpr@gmail.com,http://redcrosskarnataka.org/,Dr. Chandrayya Achary,08254 233111,8105017014,ircsbloodbankkdpr@gmail.com,,Private,YES,NO,24x7,KTK/28C-281/15,07-04-2015,06-04-2020,13.628482,74.690683,08254 233111,,,,,,
104,Fr. Mullers Charitable Instituitions Blood Bank,Karnataka,DAKSHINA KANNADA,Mangalore,"Post Box No.501, Kankanady",575002,0824 2238126,9448953716,,,,http://www.fathermuller.com/,Dr. Kirana Bialoor,8242436301,9448953716,,Medical Officer,Charity,NO,NO,24x7,KTK/28C-25/96,23-11-1996,31-12-2017,12.866805,74.85933,0824 2238126,,,,,,
105,City Hospital Research and Diagnostic Centre Blood Bank,Karnataka,DAKSHINA KANNADA,Mangalore,"Pound Garden, Kadri",575003,0824 221790 ,9480064323,,0824 2217906,,http://www.cityhospitalmangalore.in/,Dr. Shetty K. Padma,0824 221790 ,9480064323,cityhospitalmangalore@hotmail.com,Medical Officer,Private,NO,NO,24x7,KTK/28C-105/99,14-09-1999,30-12-2017,12.87963,74.853044,0824 221790 ,,,,,,
106,The District Surgeon - Wenlock District Hospital Blood Bank,Karnataka,DAKSHINA KANNADA,Mangalore,Hampanakata,575001,0824 2413205,9448624730,,,,,Dr. Zulfikar Ahmed,0824 2413205,9448624730,,Medical Officer,Government,YES,NO,24x7,KTK/28C-112/2000,17-05-2000,30-12-2016,12.867384,74.843132,0824 2413205,,,,,,
107,Yenepoya Medical College Blood Bank,Karnataka,DAKSHINA KANNADA,Mangalore,"Nithyananda Nagar, Deralakatte",575018,0824 2204668 ,7899124567,,0824 2204667,,http://www.yenepoya.edu.in,Dr. Mohamed Hafeezulla Shariff,0824 2204668 ,7899124567,,Medical Officer,Private,NO,NO,24x7,KTK/28C-152/2002,16-11-2002,14-11-2017,12.81194,74.881231,0824 2204668 ,,,,,,
108,A. J. Hospital and Research Centre Blood Bank,Karnataka,DAKSHINA KANNADA,Mangalore,"Kuntikana, NH- 66",575004,0824 2225535 ,9448127559,,0824 222 5541,,http://www.ajhospital.in,Dr. P. Aravind,0824 2225533,9448127559,,Medical Officer,Private,YES,NO,24x7,KTK/28C/223/2009 ,09-09-2011,08-09-2016,12.899478,74.845975,0824 2225535 ,,,,,,
109,KMC University Medical Centre Blood Bank,Karnataka,DAKSHINA KANNADA,Mangalore,"Dr. B. R. Ambedkar Circle, Jyothi",575001,0824 2444590 (Extn. 5059),7829131741,,0824 2421140,,http://www.kmchospitalsmangalore.com/,Dr.Chakraborti,0824 2444590,7829131741,info@kmchospitalsmangalore.com,Medical Officer,Private,YES,NO,,KTK/28C-234/2011,,,12.870434,74.844505,0824 2444590 (Extn. 5059),,,,,,
110,Srinivasa Institute of Medical Sciences and Research Centre Blood Bank,Karnataka,DAKSHINA KANNADA,Mangalore,"Mukka,Srinivas Nagar,Surathkal",575021,0824 2474883,9844120545,,0824-2442766,,http://www.srinivasgroup.com/,Dr. Nagaraj S Lakshmeswar,0824 2478586,9844120545,simsrc@srinivasgroup.com,Pathologist,Private,NO,NO,24x7,KTK/28C-240/2011,30-08-2011,29-08-2016,13.021405,74.792037,0824 2474883,,,,,,
111, M/s. Tejasvini Hospital Lions Blood Bank,Karnataka,DAKSHINA KANNADA,Mangalore,Kadri Temple Road,575002,0824 2225994,7259107052,,,,,Dr. Suchitra A Shetty,0824 2225994,7259107052,,Pathologist,Private,NO,NO,24x7,KTK/28C-241/2011,13-09-2011,12-09-2016,12.880334,74.853689,0824 2225994,,,,,,
112,Indian Red Cross Society Blood Bank Mangalore,Karnataka,DAKSHINA KANNADA,Mangalore,"Lady Goshen Hospital, Behind Central Market",575001,0824 2423755 ,9343356368,,,,http://www.redcrossdakshinakannada.org,Dr. B. Vasudeva,0824 2423755 ,9343356368,,MBBS,Charity,NO,NO,,KTK/28C-118/2000,27-07-2000,Pending,12.864857,74.83818,0824 2423755 ,,,,,,
113,Nitte University Blood Bank,Karnataka,DAKSHINA KANNADA,Mangalore,"Justice K. S. Hegde Charitable Hospital, Deralakatte",575018,0824 220447  ,9845760054,,,,http://tok-a-journey.wikispaces.com/Math+as+AOK,Dr. Chandrika Rao,0824 220447  ,9845760054,,Pathologist,Private,YES,NO,24x7,KTK/28C/262/2013 ,25-07-2013,24-07-2018,12.807444,74.888332,0824 220447  ,,,,,,
114,M/s. Kanachur Hospital & Research Centre Blood Bank,Karnataka,DAKSHINA KANNADA,Mangalore,"Ground Floor, C Block, University Road, Deralakatte",575018,08242 202982,7204979706,,0824 2202982,edu@kanachur.com,http://www.kanachurims.com/,Dr. T. Ravikumar ,0824 2202982,7204979706,edu@kanachur.com,Pathologist,Private,YES,NO,24x7,KTK/28C-279/15,17-03-2015,16-03-2020,12.803421,74.898097,08242 202982,,,,,,
115,Rotary Campco Blood Bank,Karnataka,DAKSHINA KANNADA,Puttur,"Radhakrishna Building, Shree Radhadrishna Mandir Road",574201,0824 234242 ,9449215502,,,,,Dr. Ramachandra Bhat,0824 234242 ,9449215502,rotartcampco@gmail.com,Medical Officer,Charity,NO,NO,24x7,KTK/28C-85/98,06-03-1998,Pending,12.760706,75.198947,0824 234242 ,,,,,,
116,General Hospital Blood Bank Puttur,Karnataka,DAKSHINA KANNADA,Puttur,NA,574102,08251 238258,,,,,,,,,,,Government,,,24x7,,,,12.758344,75.200313,08251 238258,,,,,,
117,K. V. G Medical College Hospital Blood Bank,Karnataka,DAKSHINA KANNADA,Sullia,Kurinji Bag,574327,0824 230326 ,9343719508,,08257 233408,,http://www.kvgmedcollege.org/,Dr. Mahantha Devaru,0824 230326 ,9343719508,kvgmede@yahoo.com,Pathologist,Private,YES,NO,24x7,KTK/28C-163/2003,08-08-2003,07-08-2018,12.55332,75.384249,0824 230326 ,,,,,,
118,Chigateri District Hospital Blood Bank,Karnataka,DAVANGERE,Chigateri,"Chigateri District Hospital, Chigateri",577004,08192 272085,9901870706,,08192 233743,chigateridh.bb.dvg@gmail.com,http://www.chigaterihospital.org,Dr. B. K. Prakash,08192 272085,9901870706,chigateridh.bb.dvg@gmail.com,MBBS,Government,YES,NO,24x7,KTK/28C-222/09,27-07-2009,26-07-2019,14.456165,75.916182,08192 272085,,,,,,
119,Bapuji Hospital Blood Bank,Karnataka,DAVANGERE,Davangere,C.G. Hospital Road,577001,08192 253850  ,9480577767,,,,,Dr. K. Jagadeshwari ,08192 253850 ,9480577767,bapujibbbh@gmail.com,Medical Officer,Private,YES,NO,24x7,KTK/28C-174/2004 ,03-12-2004,02-12-2019,14.4588202,75.9167473,08192 253850  ,,,,,,
120,Davangere Blood Bank,Karnataka,DAVANGERE,Davangere,"358, Mahaveera Complex, II Floor, 8th Main, 8th Cross, P.J. Extension",577002,08192 236655 ,9448415081,,,,,Mr. H. B. Kumar,08192 236655,9448415081,shubhodaya2002@yahoo.com,DMLT,Private,YES,NO,24x7,KTK/28C-148/2001 ,26-08-2001,25-08-2017,14.459198,75.915238,08192 236655 ,,,,,,
121,Bapuji Educational Association S. S. Institute of Medical Sciences and Research Hospital Blood Bank,Karnataka,DAVANGERE,Davangere,"Jnanashankara, NH-4 Bypass Road, Post Box-1",577003,08192 266016 ,9844004828,,08192 266310,,http://www.ssimsrc.com/,Dr. Gowda Kavitha Umapathy,08192 266016 ,9844004828,drkavitagu@yahoo.co.in,Medical Officer,Private,YES,NO,24x7,KTK/28C-80/97,22-09-1997,02-12-2019,14.430349,75.942694,08192 266016 ,,,,,,
122,Karnataka Hemophillia Society Life Line Blood Bank,Karnataka,DAVANGERE,Davangere,"No.1138, Ring Road, S. Nijalingappa Layout, Behind KSFC Building",577002,08192 231948,9845232378,,,,,Dr. Devendrappa M.T,08192 231948,9845232378,lifeline.bbo@gmail.com,Medical Officer,Private,NO,NO,24x7,KTK/28C-251/2012 ,19-10-2012,18-12-2017,14.457405,75.902533,08192 231948,,,,,,
123,INDIAN RED CROSS SOCIETY,Karnataka,DAVANGERE,Davangere,Devraj Urs Layout,577006,08192 252550,9986886464,,,venkateshd71@gmail.com,,Dr.H.D.Vishwanath,,,venkateshd71@gmail.com,MBBS,Private,NO,2,24X7,KTK/28C/215/2008,31-12-2008,31-12-2018,14.475314,75.909787,08192 252550,,,,,,
124,Rotary Club Dharwad Mid Town Charitable Trust - Rotary Blood Bank,Karnataka,DHARWAD,Dharwad,"Lourde&#39;s Hospital, Kalageri Road",500008,0836 2746123,8050492523,,,,,Dr. V. S. Kannu,0836 2746123,8050492523,,Medical Officer,Charity,NO,NO,24x7,KTK/28C-110/2000,02-03-2000,30-12-2016,15.46373,74.969829,0836 2746123,,,,,,
125,District Hospital Blood Bank Dharwad,Karnataka,DHARWAD,Dharwad,Fort Road,580001,0836 2747747,8792145842,,,,,Dr. Prabhu,0836 2747747,8792145842,,Medical Officer,Government,NO,NO,24x7,KTK/28C-116/2000,26-06-2000,31-12-2016,15.46473,75.010366,0836 2747747,,,,,,
126,SDM College of Medical Sciences and Hospital Blood Bank,Karnataka,DHARWAD,Dharwad,"First Floor B Wing Building, Sattur",580009,0836 2477262,9886174035,,,,http://sdmmedicalcollege.org/,Dr Bhat Sudhir Anant,0836 2477777 ,9886174035,drjeevapriya@gmail.com,Medical Officer,Private,YES,NO,24x7,KTK/28C-170/2004,01-04-2004,30-03-2019,15.417904,75.050162,0836 2477262,,,,,,
127,Karnataka Medical College Hospital Blood Bank,Karnataka,DHARWAD,Hubli,"III Floor, # 306 ",580022,080 2272908,9448465399,,,,,Dr. Sujatha S. Giriyan,080 2272908,9448465399,drwd.kims.bb@gmail.com,Medical Officer,Private,YES,YES,24x7,KTK/28C-66/97,01-01-1996,31-12-2016,15.3669,75.128266,080 2272908,,,,,,
128,M. R. Diagnostic Research Centre and Blood Bank,Karnataka,DHARWAD,Hubli,"Ground Floor, Eureka Towers, Traffic Island",580029,0836 2253450  ,9845138970,,,,,Dr. Satish Dattatray Shetty,0836 2253450 ,9845138970,dwdmrdaignosticresearchcenterandbloodbank@gmail.com,Medical Officer,Private,NO,NO,24x7,KTK/28C-86/98,24-04-1998,30-12-2016,15.364705,75.123954,0836 2253450  ,,,,,,
129,The Karnataka Cancer Therapy and Research Institute Smt. Valbai N. Dharamsey Blood Bank,Karnataka,DHARWAD,Hubli,Navanagar ,580025,0836 2228217 ,9845303567,,,,,Dr. Umeshwar R. Hallikeri,0836 2228217 ,9448793132,kctribloodbank@gmail.com,Medical Officer,Private,YES,YES,24x7,KTK/28C-90/98,06-06-1998,30-12-2016,15.36472,75.123954,0836 2228217 ,,,,,,
130,Jeevanavar Blood Bank,Karnataka,DHARWAD,Hubli,"CTS No.104,11/15-B, Municipal No.20922/17-A, 
K.H.Jituri Hospital, Complex, II Floor, Gokul Road",580021,0836 2278320 ,9900233525,,,,,Dr. M. J. Jeevannavar,0836 2278320 ,9900233525,,Medical Officer,Private,NO,NO,24x7,KTK/28C-108/2000,01-01-2000,30-12-2016,15.353643,75.130587,0836 2278320 ,,,,,,
131,Hubli Lions Blood Bank,Karnataka,DHARWAD,Hubli,"CTS No. 440, Ward No.1, Groud Floor, Vivekananda General Hospital Compound, Deshpande Nagar, Hubli",580029,0836 2258080 ,9448007249,,,,,Dr. Muralidhar Rao,0836 2258080,9448007249,dwdhublilionbb@gmail.com,Medical Officer,Charity,NO,NO,24X7,KTK/28C-134/2001,14-08-2001,2017,15.354562,75.135566,0836 2258080 ,,,,,,
132,Sha Damji Jadavji Chheda Memorial Rashtrotthana Blood Bank,Karnataka,DHARWAD,Hubli,"2nd Floor Dee Jay building, Neeligin Road",581107,0836 2358838,9916274362,,,,,Dr. Seema Shrinath Mugadi,0836 2358838,9916274362,rbloodbankhubli@gmail.com,Medical Officer,Charity,NO,NO,24x7,KTK/28C/226/2010-11,25-05-2010,24-05-2015,15.3534025,75.1348707,0836 2358838,,,,,,
133,Life Line 24x7 Blood Bank,Karnataka,DHARWAD,Hubli,Opposite to New Bus Stand Airport Road,581107,0836 2330000,9980053517,,,,,Dr. Mamata P Halgeri,0836 2330000,9980053517,dwd.lifeline.bb@gmail.com,Medical Officer,Private,YES,YES,24x7,K/28C/230/ 2010,18-09-2010,17-09-2015,15.35144,75.117758,0836 2330000,,,,,,
134,M/s. Suchirayu Healthcare Limited Blood Bank,Karnataka,DHARWAD,Hubli,"Sy.No:28/8-11,M.Timmasagara, Jalavi Garden, Off Gokul Road",580030,0836 2239000,9986125245,,,,,Dr. Poornima S. Jawali,0836 2239000,9986125245,hschbl@gmail.com,Pathologist,Private,YES,NO,24x7,KTK/28C-285/15,23-05-2015,22-05-2020,15.3526453,75.1155103,0836 2239000,,,,,,
135,IMA Blood Bank,Karnataka,GADAG,Gadag,"Zendha Circle, Station Road",582101,08372 253955 ,9880025101,,,,,Dr. Rajashekar T. Pawadshetter,08372 253955 ,9880025101,gdg.ima.bb@gmail.com,Medical Officer,Charity,NO,NO,24x7,KTK/28C-150/2002,16-10-2002,14-10-2016,15.436162,75.637616,08372 253955 ,,,,,,
136,Gadag Institute of Medical Sciences & District Hospital Blood Bank,Karnataka,GADAG,Gadag,"Gadag Institute of Medical Sciences, Mallasamudra",582103,08372 297214,9481474663,,,bloodbankgims@gmail.com,http://www.gimsgadag.org,Dr. Anand Kumar .G.,08372 297214,9481474663,dranand_k@yahoo.co.in,Pathologist,Government,YES,NO,24x7,KTK/28C-277/15,02-12-2015,02-11-2015,15.380961,75.600802,08372 297214,,,,,,
137,Sri. Chamarajendra District Hospital Blood Bank,Karnataka,HASSAN,Hassan,Hospital Road,573201,08172 252330,9980007690,,,,,Dr. Purushotham,08172 252330,9980007690,121bloodbankhassan@gmail.com,Medical Officer,Government,NO,NO,24x7,KTK/28C-76/97,25-07-1997,Pending,13.004537,76.103797,08172 252330,,,,,,
138,Jeeva Raksha Blood Bank,Karnataka,HASSAN,Hassan,"Vokkaligara Hostel Building, Ist Floor, B.M.Road",573201,08172 26204 ,9448749756,,,,,Dr. T. R. Shivaramu,08172 26204 ,9448749756,jeevarakshahassan@gmail.com,Medical Officer,Private,YES,NO,24x7,KTK/28C-101/99,16-07-1999,30-12-2017,13.0032624,76.0975902,08172 26204 ,,,,,,
139,Manjunath Orthopaedic and Trauma Centre Hospital Blood Bank,Karnataka,HASSAN,Hassan,K. R. Puram,573201,08172 266124,9448885440,,,,,Dr. S. Palaksha,08172 266124,9448885440,hassanbloodbank@yahoo.com,Medical Officer,Private,YES,NO,24x7,KTK/28C/245/2011,28-11-2011,27-11-2016,13.0080708,76.1016262,08172 266124,,,,,,
140,District Hospital Blood Bank Haveri,Karnataka,HAVERI,Haveri,,581110,0837 5232222,9448961599,,,,,Dr. N. Muralidhar,0837 5232222,9448961599,bbhaveri@gmail.com,Medical Officer,Government,NO,NO,24x7,KTK/28C-186/2006,29-04-2006,28-04-2016,14.785408,75.403059,0837 5232222,,,,,,
141,HKES Blood Bank Organisation,Karnataka,KALABURAGI,Gulbarga,"M.R. Medical College, Basave shwara Teaching and General Hospital, No.7-52 Sadam Road",585105,"08472 220307, 08472  225085",944806660,,,,http://mrmc.hkesociety.org/about.htm,Dr. Shivanand S. Devarmani,"08472245922	",944806660,drssdevaramani@gmail.com,Medical Officer,Private,NO,NO,24x7,KTK/28C/5/94,22-09-1994,Pending,17.328385,76.844483,08472 220307, 08472  225085,,,,,
142,District Hospital Blood Bank,Karnataka,KALABURAGI,Gulbarga,Sedam Road,585102,08472 2240630,9448822018,,,,,Dr. Shalini Sajjanshetty,8472278644,9448822018,glb.districthospital.bb@gmail.com,Medical Officer,Government,NO,NO,24x7,KTK/28C-41/97,18-03-1997,30-12-2017,17.328685,76.840743,08472 2240630,,,,,,
143,Health Care Blood Bank,Karnataka,KALABURAGI,Gulbarga,"3-400/401 A, Ist Floor, Taj Complex, Gazipura",585104,08472 261886 ,9845676684,,,,,Mr. Shivakumar,08472 261886 ,9845676684,hcbb.glb@gmail.com,DMLT,Private,NO,NO,24x7,KTK/28C-158/2003,22-05-2003,20-05-2018,17.3353831,76.8361997,08472 261886 ,,,,,,
144,Khaja Banda Nawaz Teaching and General Hospital Blood Bank,Karnataka,KALABURAGI,Gulbarga,"Khaja Nagri, Station Main Road",585102,0847 2223458,9242086998,,08472 268253,,http://kbnims.org/,Dr. Zeenath Begaum,0847 2223458,9242086998,kbnbloodbank@gmail.com,Medical Officer,Private,YES,NO,24x7,KTK/28C-156/2003,04-03-2003,02-03-2018,17.352728,76.853237,0847 2223458,,,,,,
145,M/s. Vaatsalya Life Hospitals Navajeeva Blood Bank,Karnataka,KALABURAGI,Gulbarga,"Vaatsalya Life Hospital, 1st Floor, Near RTO Office, SH-10",585105,08472 240066,8147796454,,,ravichavan851@gmail.com,http://www.vaatsalya.com,Dr. Chandrakanth V. Rathod,08472 240066,9886116701,,Pathologist,Private,YES,YES,24x7,KTK/28C-287/15,07-04-2015,06-01-2020,17.328477,76.847911,08472 240066,,,,,,
146,M/s. Medicare Multispeciality Hospital Blood Bank,Karnataka,KALABURAGI,Gulbarga,"Badagu Health Services Private Limited, 1st Floor, Darga Road, Santraswadi",585101,08472 262524,9141366055,,,vbagdgu@yahoo.com,,Dr. Pramod Kumar Pamu,08472 262524,9141366055,vbagdgu@yahoo.com,Pathologist,Private,YES,NO,24x7,KTK/28C-278/15,13-02-2015,12-02-2020,17.337775,76.844343,08472 262524,,,,,,
147,District Hospital Blood Bank,Karnataka,KODAGU,Madikeri,General Thimayya Road,571201,08272 223445,9449843175,,,,,Dr. Nagalashmi D.N.,08272 223445,9449843175,dskodagu@gmail.com,Medical Officer,Government,NO,NO,24x7,KTK/28C-128/2001,20-03-2001,12-04-2016,12.418764,75.742555,08272 223445,,,,,,
148,Sambrama Institute of Medical Sciences & Research Hospital Blood Bank,Karnataka,KOLAR,K. G. F.,"No:3029/1, D. K. Plantation BEML Nagar",563115,08153 263230,8747005859,,,simskgf@gmail.com,http://www.sambhram.org,Dr. Prakash Babu,08153 263230,8747005859,simskgf@gmail.com,Pathologist,Private,YES,NO,24x7,KTK/28C-276/14,19-12-2014,18-12-2019,12.996519,78.240449,08153 263230,,,,,,
149,General Hospital Robertson Peth Blood Bank,Karnataka,KOLAR,Kolar,Kolar Gold Field (K. G. F),563122,08253 271041,9845122875,,,,,Dr. K. Bhanu Devi,08253 271041,9845122875,,Anaesthetist,Government,NO,NO,24x7,KTK/28C-42/97,19-03-1997,30-12-2017,12.953386,78.271285,08253 271041,,,,,,
150,S.N.R. District Hospital Blood Bank,Karnataka,KOLAR,Kolar,"Gowripete, Kolar",563101,08152 222035,9448294218,,,,,Dr. Shivanna,08152 222035,9448326926,dskolar@gmail.com,Medical Officer,Government,NO,NO,24x7,KTK/28C-43/97,21-03-1997,30-12-2017,13.129255,78.13435,08152 222035,,,,,,
151,BEML Medical Centre Bharat Earth Movers Limited Blood Bank,Karnataka,KOLAR,Kolar,Kolar Gold Fields ,563115,08153 263208 ,9008180322,,,,,Dr. Meenakshi,8152269089,9008180322,cmokgf@beml.co.in,Medical Officer,Government,NO,NO,24x7,KTK/28C-179/2005,23-05-2005,22-05-2015,12.983949,78.237201,08153 263208 ,,,,,,
152,R. L. Jalappa Hospital and Research Centre Blood Bank,Karnataka,KOLAR,Kolar,"NH-4,Tamaka",563101,,9480849818,,,,,Dr. Subhashis Das,8152243003,9480849818,daspathology@gmail.com,Pathologist,Private,YES,NO,24x7,KTK/28C-31/97,03-01-1997,30-12-2017,13.131674,78.173061,,,,,,,
153,Gopi Blood Bank,Karnataka,KOPPAL,Koppal,"Gunj Area, C.B.S. Circle, Gangavthi ",583227,08533 272191 ,9448068318,,,,,Dr. B. Gurumurthy,08533 272191 ,9448068318,gopibloodbank@gmail.com,Medical Officer,Private,NO,NO,24x7,KTK/28C/220/2009,01-07-2009,29-06-2019,15.4345687,76.5018267,08533 272191 ,,,,,,
154,Indian Red Cross Koppal District Branch Blood Bank,Karnataka,KOPPAL,Koppal,"1st Floor, New District Hospital, Hospital Road, Koppal ",580323,0853 9225088,9886174034,,,,,Dr. Sudhir A. Bhat,0853 9225088,9886174034,ircskpl@gmail.com,Medical Officer,Charity,,,24x7,,,,15.419164,76.138152,0853 9225088,,,,,,
155,Adichunchanagiri Hospital and Research Centre Blood Bank,Karnataka,MANDYA,Mandya,"Balagangadharnath Nagar, Bellur",571418,08232 287433  ,9448084990,,08234-287242,,http://www.bgsaims.com/,Mr. Naganna M L,08232 287433  ,9448084990,aims@bgsaims.com,DMLT,Private,NO,NO,24x7,KTK/28C-71/97,05-05-1997,Pending,12.966319,76.721027,08232 287433  ,,,,,,
156,District Hospital Blood Bank Mandya,Karnataka,MANDYA,Mandya, District Hospital Premises,571401,0832 224040,9986093019,,,,,Dr. Y. Muralidhar Bhat ,0832 224040,9986093019,mnd.districthospiatal.bb@gmail.com,Medical Officer,Government,NO,NO,24x7,KTK/28C-92/98,23-07-1998,30-12-2016,12.4279555,76.7010341,0832 224040,,,,,,
157,MDC Voluntary Blood Bank,Karnataka,MANDYA,Mandya,"Khatha No. D5/1045/187, Alahalli Extension, General Hospital Road, Nehrunagar",571401,08232 231665 ,9972281215,,,,,Dr. Nagaraju,08232 231665 ,9972281215,drnagarajmdy@gmail.com,Medical Officer,Private,NO,NO,24x7,KTK/28C-140/2001,20-10-2001,18.10.2016,12.52027,76.899169,08232 231665 ,,,,,,
158,Vikarm Hospital Blood Bank,Karnataka,MANDYA,Mandya,"Vikarm Hospital, No.D5/271/219B and D5/272/1220, 3rd Cross, Ashoka Nagar",571401,08232 402121,9686667882,,,,,,,,,,Private,,,24x7,,,,12.525089,76.8982,08232 402121,,,,,,
159,Holdsworth Memorial Mission Hospital Blood Bank,Karnataka,Mysore,Mysore,Mandimohalla,570021,0821 2521650  ,9448390717,,0821 2565607,,,Dr. Ranganatha,0821 2521650,9448390717,hmhmysore@hotmail.com,Medical Officer,Private,NO,NO,24x7,KTK/28C-91/98,20-07-1998,30-12-2016,12.316416,76.650574,0821 2521650  ,,,,,,
160,Bassappa Memorial Hospital Blood Bank,Karnataka,Mysore,Mysore,"22/B, Vinoba Road, Jayalakshmipuram",570012,0821 2511671,9243502114,,,,,Dr. G. N. Sreenivas,0821 2511671,9243502114,,Medical Officer,Private,NO,NO,24x7,KTK/28C-127/2001,26-02-2001,30-12-2017,12.320811,76.62005,0821 2511671,,,,,,
161,B. G. S. Apollo Hospital Blood Bank,Karnataka,Mysore,Mysore,"Kantharaj Urs Road, Kuvempunagar",570010,0821 2566666 ,9449843060,0821 246 6003 ,0821 4000888,,http://www.apollobgshospitalsmysore.com,Dr. A. Venugopal,0821 2566666 ,9449843060,apollo_bgs@apollohospitals.com,Pathologist,Private,NO,NO,24x7,KTK/28C-142/2001,06-12-2001,Pending,12.29573,76.632061,0821 2566666 ,,,,,,
162,Vikram Hospital and Heart Centre Blood Bank,Karnataka,Mysore,Mysore,"346, Vivekananda Road, Yadavagiri",570020,0821 2412121,9686667882,,,,http://www.nammavikram.com,Mr. Nagendra H,0821 2412121,9686667882,mail@vhpl.com,DMLT,Private,NO,NO,24x7,KTK/28C-155/2002,04-02-2003,Pending,12.32354,76.638119,0821 2412121,,,,,,
163,Rotary Mysore Chandrakala Hospital Blood Bank,Karnataka,Mysore,Mysore,"Chandrakala Hospital and Institute of Medical Research, Plot &#39;A&#39;, Kalidasa Road, Jayalakshmipuram",570012,0821 4288638,9731134312,,,,,Dr. Dhamoder A. M.,0821 4288638,9731134312,rchbb.mysore@rediffmail.com,Medical Officer,Private,NO,NO,24x7,KTK/28C-210/ 2007,18-12-2007,16-12-2017,12.325868,76.619519,0821 4288638,,,,,,
164,Jeevadhara Voluntary Blood Bank ,Karnataka,Mysore,Mysore,"Aunit of Cauvery Social Services Trust, No.1475, 2nd Floor and 3rd floor, New Sayaji RaoRoad, Mandi Mohalla",570010,0821 2444936,9379042563,,,,http://jeevadharabloodbank.com/,Dr. Radha K. S.,0821 2444936,9379042563,info@jeevadharabloodbank.com,Medical Officer,Charity,NO,NO,24x7,KTK/28C-138/2001,20-10-2001,18-10-2016,12.315731,76.65103,0821 2444936,,,,,,
165,Nuveen Medical Relief and research Foundation Blood Bank,Karnataka,Mysore,Mysore,"St.Joseph SH-17, 331/1, L176/2, Bannimantap",570015,0821 2496688,9845512045,,0821 4003999,,http://www.stjosephshospitalmysore.com/,Dr. Parashivamurthy,0821 4003900,9845512045,stjosephsbloodbankmysore@gmail.com,Pathologist,Private,YES,YES,24x7,KTK/28C-253/2012,21-08-2013,20-08-2018,12.3410708,76.6531589,0821 2496688,,,,,,
166,Cauvery Hospital Blood Bank,Karnataka,Mysore,Mysore,"No.42/2B, 2C, Teresian College Circle, Siddarth Nagar",570011,0821 2425000,,9742525000,,,http://www.cauveryhospital.org/,Dr. Rashmi B.K.,0821 2425000,,bloodbank@cauveryhospital.org,MBBS,Private,,,24x7,,,,12.30509,76.695813,0821 2425000,,,,,,
167,Kamakshi Hospital Blood Bank,Karnataka,Mysore,Mysore,"1st Floor, New Building of Kamakshi Hospital Premises, Kuvempnagar Mysore",570009,0821 2545981  ,9035217230,,0821 2341981,,http://www.kamakshihospital.org/,Dr. K. R. Kamath,0821 2545981  ,9035217230,kamakshihospital@yahoo.co.in,Pathologist,Private,NO,NO,24x7,KTK/28C-70/97,05-05-1997,30-12-2017,12.299739,76.623762,0821 2545981  ,,,,,,
168,Narayana Hrudayalaya - Surgical Hospital Private Limited Blood Bank,Karnataka,Mysore,Mysore," CAH-1, 3rd Phase, Devanur",570019,0821 7122222 (Extn. 2260),9972336633,0821 7122222,,,http://www.narayanahealth.org/,Dr. Shivprasad.P.N.,0821 7122222 ,9972336633,info.mys@nhhospitals.org,MD (Pathology),Private,,,24x7,,,,12.345086,76.673031,0821 7122222 (Extn. 2260),,,,,,
169,J. S. S. Hospital Blood Bank,Karnataka,Mysore,Mysore,"J S S Hospital, Ramanuja Road",570004,0821 2335009,9986649850,1800 4255 1234,0821 2335556,,http://www.jsshospital.in,Dr. Pallavi,0821 2335009,9986649850,contact@jsshospital.in,Pathologist,Private,YES,NO,24x7,KTK/28C-9/95,22-09-1995,30-12-2017,12.29521,76.65607,0821 2335009,,,,,,
170,K. R. Hospital Blood Bank,Karnataka,Mysore,Mysore,Sayyaji Rao Road,570010,0821 2429800,9901997671,,,,,Dr. Manjunath B. S.,0821 2429800,9901997671,mrs.krhospital.bb@gmail.com,Medical Officer,Government,NO,NO,24x7,KTk/28C-20/96,11-02-1997,Pending,12.313101,76.649573,0821 2429800,,,,,,
171,Railway Hospital Blood Bank,Karnataka,Mysore,Yadavagiri,Yadavagiri,570020,0821 2517238,9449843037,,,,,Dr. S. G. Madwesh,0821 2517238,9449843037,msr.railwayhospital.bb@gmail.com,Pathologist,Government,NO,NO,24x7,KTK/28C-181/2005,01-06-2005,29-05-2015,12.325712,76.635623,0821 2517238,,,,,,
172,Hutti Gold Hospital Blood Bank,Karnataka,RAICHUR,Hutti,"Hutti Gold Mines Limited, Raichur",584101,08532 275049,9986850870,,,,http://www.huttigold.co.in/,Dr. Vasanth Kumar,8532275463,9986850870,hygomin@sancharnet.in,MBBS,Private,NO,NO,24x7,KTK/28C-73/97,05-05-1997,30-12-2017,16.196412,76.653027,08532 275049,,,,,,
173,Indian Medical Association Blood Bank,Karnataka,RAICHUR,Raichur,"3.9.58, Old Government  Hospital Compound, Beron Quilla",584101,08532 226608,08532 226608,,,,,Dr. Ravi Rajeshwar,08532 226608,08532 226608,,MBBS,Private,NO,NO,24x7,KTK/28C-13/96,04-11-1996,30-12-2016,12.960041,77.57296,08532 226608,,,,,,
174,Navodaya Medical College Hospital and Research Centre Blood Bank,Karnataka,RAICHUR,Raichur,Mantralaya Road,584103,08532 223361 (Extn. 444),8123174079,,08532 223326,,http://navodaya.edu.in/,Dr. Anand A. S,08532 223361 ,"09880765836	",,Pathologist,Private,YES,NO,24x7,KTK/28C-162/2003,14-07-2003,12-07-2018,16.184331,77.368042,08532 223361 (Extn. 444),,,,,,
175,Raichur Institute of Medical Sciences Teaching Hospital (RIMS) Blood Bank,Karnataka,RAICHUR,Raichur,Rajendra Gunj,584101,,9972777381,,08532 238489,,http://www.rims-raichur.com/,Dr. N. Prasanna Kumar,08532 238788,9972777381,,Pathologist,Private,YES,NO,24x7,KTK/28C-269/2014,07-01-2014,06-01-2019,16.229892,77.35936,,,,,,,
176,Sri Shakti Blood Bank,Karnataka,RAICHUR,Sindhanur,"Badarli Venkat Rao Gouda Health Care Association, Venkateshwara Tourist Home, Sukalapeta Road",584128,0853 5220299,9986681999,,,,,Dr. Khan Mohammed Khudratullah,0853 5220299,9986681999,srishaktibloodbank@yahoo.com,MBBS,Private,NO,NO,24x7,KTK/28C-212/ 2008,08-08-2008,06-08-2018,15.7687772,76.7638445,0853 5220299,,,,,,
177,M/S Indian Red Cross Society,Karnataka,RAMANAGARA,Ramanagar,"Ramanagar District Branch,
District Hospital Premises,1st Floor",562117,080 2727200,8050117908,,,icrsramanagara@gmail.com,http://redcrosskarnataka.org/,Dr.Hemanthraj Savalgi,080 2727200,8050117908,icrsramanagara@gmail.com,MBBS,Private,NO,NO,24X7,KTK/28C-291/15,8/31/2015,8/30/2020,12.5418511,77.3404064,080 2727200,,,,,,
178,Jeevadhara Blood Bank,Karnataka,SHIVAMOGGA,Bhadravathi,"17, Meena Nursing Home, Madhava Nagar",577301,08182 263770,8212444936,,,,,Dr. Vinit Anand,08182 263770,8212444936,smg.jeevadhara.bb@gmail.com,MBBS,Private,NO,NO,24x7,KTK/28C-166/2004,23-01-2004,Pending,13.844738,75.710033,08182 263770,,,,,,
179,VISL Hospital Blood Bank,Karnataka,SHIVAMOGGA,Bhadravati," SH 65, Hutta Colony",577301,08182 271620,9480828906,,,,,Dr. Kavitha,08182 271620,9480828906,kavitha.sadashiv@gmail.com,Diplomo in Clinical Pathology,Private,NO,NO,24x7,,,,13.83034,75.690275,08182 271620,,,,,,
180,McGann Hospital Blood Bank,Karnataka,SHIVAMOGGA,Shimoga,Sagar Road,577201,08182 222412,9480575724,,,,,Dr. Sushmitha M. S.,08182 222412,9480575724,simsbloodbank@gmail.com,MBBS,Government,NO,NO,24x7,KTK/28C-58/97,07-04-1997,30-12-2017,13.935689,75.562968,08182 222412,,,,,,
181,Shimoga Mid Town Rotary Charity Foundation Blood Bank,Karnataka,SHIVAMOGGA,Shimoga,"Opposite Usha Nursing Home, 100 Feet Road",577201,08182 274333,8182274333,,,,,Dr. Sanjay K. N.,08182 274333,8182274333,sanjaykn1@rediffmail.com,MBBS,Charity,YES,YES,24x7,KTK/28C-107/99,25-10-1999,30-12-2017,13.94626,75.57832,08182 274333,,,,,,
182,Subbaiah Medical College Blood Bank,Karnataka,SHIVAMOGGA,Shimoga,"NH-13, Purle, Hjolehonnur, Road",577201,08182 277505,9844077203,,,,,Dr. Manjula J. S.,08182 277505,9844077203,smcshimoga@yahoo.co.in,MBBS,Private,YES,YES,24x7,KTK/28C-107/99,25-10-1999,30-12-2017,13.932932,75.617172,08182 277505,,,,,,
183,M/s. Sahyadri Narayana Multispeciality Hospital Blood Bank,Karnataka,SHIVAMOGGA,Shimoga,"New Thirthahalli Road, Harakere",577202,08182 221577,9538045162,,,,http://www.narayanahealth.org,Dr. Rekha,08182 221577,9538045162,janardhan.n.dr@nhhospitals.org,Pathologist,Private,YES,NO,24x7,KTK/28C-280/15,30-01-2015,29-01-2020,13.908068,75.560375,08182 221577,,,,,,
184,Red Cross Sanjeevini Blood Bank,Karnataka,SHIVAMOGGA,Shivamogga,"Ist Floor, Kshiti Complex, JPN Road",577201,08182 228855,9448122965,,,,,Dr. A. Shashi Kumar Raj,08182 228855,9448122965,jogfalls@rediffmail.com,MBBS,Charity,NO,NO,,KTK/28C-235/2011,16-06-2011,Pending,13.933868,75.57183,08182 228855,,,,,,
185,Sri Sidhartha Medical College Blood Bank,Karnataka,TUMAKURU,Tumkur,"Agalakote, B.H.Road",572102,08162 278867,9900136044,,,,,Dr. Rajendra Prasad H. M.,08162 278867,9900136044,ssmc_tumkur@hotmail.com,Pathologist,Private,NO,NO,24x7,KTK/28C-54/97,31-03-1997,30-12-2017,13.346024,77.057009,08162 278867,,,,,,
186,District Hospital Blood Bank Tumkur,Karnataka,TUMAKURU,Tumkur,"Near Town Hall, B.H. Road, Tumkur",572101,08162 257404,9164197557,,,,,Dr. Veena S,08162 257404,9164197557,bbdtumkur@gmail.com,MBBS,Government,NO,NO,24x7,KTK/28C-62/97,31-03-1997,30-12-2017,13.339661,77.098414,08162 257404,,,,,,
187,J.C. Voluntary Blood Bank,Karnataka,TUMAKURU,Tumkur,"Plot No. 5421, II Floor, Narasimha Building, Nisarga Layout, B.H. Road",572101,08162 272980 ,8970137958,,,,,Dr. V Srinivasa Murthy,08162 272980 ,8970137958,jcvbloodbank@gmail.com,,Charity,NO,NO,24x7,KTK/28C-164/2003,16-12-2003,Pending,13.337779,77.11681,08162 272980 ,,,,,,
188,Vijaya Hospital Blood Bank,Karnataka,TUMAKURU,Tumkur,"10054/A, 4511/A, 3rd Main Road",572103,0816 2257762,9886565320,,,,,Dr. Arun Kumar,0816 2257762,9886565320,sanjeevinibloodbank6@gmail.com,Medical Officer,Private,NO,NO,24x7,KTK/28C-192/ 2007,01-02-2007,30-01-2017,13.332531,77.096051,0816 2257762,,,,,,
189,Rotary Tumkur Central Belli Blood Bank,Karnataka,TUMAKURU,Tumkur,"Khata No. 308/A, 321/A and 303/A/321, Ward No. 13, Opposite Government Hospital, Gandhinagar",572201,0816 225277,9844354525,,,,,Dr. Ramesh S. T.,0816 225277,9844354525,bellilokesh@gmail.com,MBBS,Charity,NO,NO,24x7,KTK/28C-208/ 2007,06-11-2007,04-11-2017,13.3415593,77.1031786,0816 225277,,,,,,
190,Sri Shridevi Charitable Trust - Sreedevi Institute of Medical Sciences & Research Hospital Blood Bank,Karnataka,TUMAKURU,Tumkur,"NH-4, Sira Road,Tumkur",572106,7259033424,9900782021,,0816 2212193,,http://www.shridevimedical.org/,Dr. Krishna,0816 2211999,9448660100,,MD (Pathology),Private,YES,NO,24x7,KTK/28C-265/2013,25-09-2013,24-09-2018,13.376281,77.096987,7259033424,,,,,,
191,Kasturba Hospital Blood Bank,Karnataka,UDUPI,Manipal,"Site.No.55/2, Shivalli Village, Manipal Udupi",576104,0820 2922331  ,9743489837,,,,,Dr. BhatShamee shashtri,0820 2922331  ,9743489837,office.kh@manipal.edu,MD (Pathology),Private,YES,NO,,KTK/28C-228/2010,13-08-2010,11-08-2020,13.353846,74.789057,0820 2922331  ,,,,,,
192,District Hospital Blood Bank Udupi,Karnataka,UDUPI,Udupi,District Hospital,576101,0820 2520555,9844364352,,,,,Dr. Suchetha,0820 2520555,9844364352,udp.districthospital.bb@gmail.com,MBBS,Government,NO,NO,24x7,KTK/28C-120/2000,28-03-2000,30-12-2017,13.334045,74.742105,0820 2520555,,,,,,
193,K. L. E. Society Blood Bank,Karnataka,UTTARA KANNADA,Ankola,Dr. Kamal hospital & Medical Research Centre,581301,08388 230257,9448122086,,08388 230272,,http:/www.klesociety.org,Dr. Sanjeev Navliyaer,08388 230257,9448122086,drbhatkal@gmail.com,Medical Officer,Private,NO,NO,24x7,KTK/28C/216/ 2009,11-02-2009,09-02-2019,14.661796,74.309805,08388 230257,,,,,,
194,District Hospital Blood Bank Karwar,Karnataka,UTTARA KANNADA,Karwar,District Hospital Premises,581301,0838 2226318,9008891201,,,,,Dr. Suresh P. A.,0838 2226318,9008891201,,MBBS,Government,NO,NO,24x7,KTK/28C-115/2000,05-06-2000,30-12-2016,14.817283,74.12968,0838 2226318,,,,,,
195,Pandit General Hospital Blood Bank,Karnataka,UTTARA KANNADA,Karwar,Sirsi,581401,0838 2223066,,,,,,Dr. Mamata Hegde,0838 2223066,9916083233,,MBBS,Government,NO,NO,24x7,KTK/28C/221/2009,22-07-2009,20-07-2019,14.32773,74.491531,0838 2223066,,,,,,
196,The Uttara Kannada Blood Bank and Health Services Society,Karnataka,UTTARA KANNADA,Kumta,"London Mahal, Gujjar Galli",581343,08382 221851 ,9901369298,,,uk.uttarakannada.bb@gmail.com,,Dr. Madhukar Krishna Naik,08382 221851 ,9901369298,,MBBS,Private,NO,NO,24x7,KTK/28C-144/2001,24-01-2002,Pending,14.4292776,74.4024452,08382 221851 ,,,,,,
197,Shripad Hegde Kadave Institute of Medical Sciences Blood Bank,Karnataka,UTTARA KANNADA,Sirsi,T.S.S. Hospital,581401,0838 6221851,9916281013,,0838 4238379 ,,http://tsshospital.org/,Dr. P. S Hegde,0838 6221851,9916281013,,Pathologist,Private,NO,NO,24x7,KTK/28C/213/ 2008,07-08-2008,05-08-2018,14.632385,74.848338,0838 6221851,,,,,,
198,M/s. Indian Red Cross Society Blood Bank Yadgir,Karnataka,YADGIR,Yadgir,"Gate no:-3,Government District Hospital Premises",585201,08473 250355,7829487838,,,ircsyadgir@gmail.com,http://redcrosskarnataka.org/,Dr. Shailaja S.,08473 250355,7829487838,ircsyadgir@gmail.com,MBBS,Private,NO,NO,24x7,KTK/28C-292/15,01-09-2015,31-08-2020,16.752789,77.138698,08473 250355,,,,,,
199,K. V. M. Hospital Blood Bank,Kerala,ALAPPUZHA,Alappuzha,"P.B. No. 30, Chertala",688524,0477 2812228,,,,,,,,,,,Private,,,24x7,,,,9.667112,76.339569,0477 2812228,,,,,,
